[{"name":"Veggie Grill","location":{"type":"Point","coordinates":[-118.2547171,34.0486546]},"local":"vegan"},{"name":"sweetgreen","location":{"type":"Point","coordinates":[-118.2541173,34.0505422]},"local":"vegan"},{"name":"Tender Greens","location":{"type":"Point","coordinates":[-118.2545385349,34.0482940777]},"local":"vegan"},{"name":"Ramen Hood","location":{"type":"Point","coordinates":[-118.2486878968,34.0506309926]},"local":"vegan"},{"name":"Tierra Cafe","location":{"type":"Point","coordinates":[-118.2587144594,34.0499859418]},"local":"vegan"},{"name":"Au Lac","location":{"type":"Point","coordinates":[-118.2504878553,34.0564745053]},"local":"vegan"},{"name":"Modern Times Beer: The Dankness Dojo","location":{"type":"Point","coordinates":[-118.2575999994,34.0441330626]},"local":"vegan"},{"name":"Backyard Bowls","location":{"type":"Point","coordinates":[-118.259311884,34.046420518]},"local":"vegan"},{"name":"Donut Friend","location":{"type":"Point","coordinates":[-118.251987,34.04723]},"local":"vegan"},{"name":"Mixt","location":{"type":"Point","coordinates":[-118.2512540828,34.0518126051]},"local":"vegan"},{"name":"Tocaya DTLA","location":{"type":"Point","coordinates":[-118.2573295469,34.0449961206]},"local":"vegan"},{"name":"Mendocino Farms","location":{"type":"Point","coordinates":[-118.2550713,34.0515636]},"local":"vegan"},{"name":"Localita & The Badasserie","location":{"type":"Point","coordinates":[-118.253016,34.04168]},"local":"vegan"},{"name":"Beelman's Pub","location":{"type":"Point","coordinates":[-118.2511668076,34.0457107884]},"local":"vegan"},{"name":"Bodhi Bowl","location":{"type":"Point","coordinates":[-118.2601593174,34.0453353126]},"local":"vegan"},{"name":"Le Pain Quotidien","location":{"type":"Point","coordinates":[-118.2545346022,34.048470334]},"local":"vegan"},{"name":"Press Brothers Juicery","location":{"type":"Point","coordinates":[-118.2486004461,34.0506222167]},"local":"vegan"},{"name":"Everytable","location":{"type":"Point","coordinates":[-118.2584969163,34.0481655559]},"local":"vegan"},{"name":"Badmaash","location":{"type":"Point","coordinates":[-118.244571087,34.0513423251]},"local":"vegan"},{"name":"WILD Living Food","location":{"type":"Point","coordinates":[-118.2530591738,34.042777873]},"local":"vegan"},{"name":"Marie's Coffee & Deli","location":{"type":"Point","coordinates":[-118.2586005675,34.0485496149]},"local":"vegan"},{"name":"Mendocino Farms","location":{"type":"Point","coordinates":[-118.2606626143,34.0494877197]},"local":"vegan"},{"name":"Pizza Studio","location":{"type":"Point","coordinates":[-118.2617532,34.0492459]},"local":"vegan"},{"name":"Juice Crafters","location":{"type":"Point","coordinates":[-118.2523763849,34.0445601916]},"local":"vegan"},{"name":"The Eight Bar","location":{"type":"Point","coordinates":[-118.2578142013,34.0460228884]},"local":"vegan"},{"name":"Bar Am\u00e1","location":{"type":"Point","coordinates":[-118.248076,34.048523]},"local":"vegan"},{"name":"Hero Shop","location":{"type":"Point","coordinates":[-118.24925605,34.0447538667]},"local":"vegan"},{"name":"The Original Pantry","location":{"type":"Point","coordinates":[-118.2631025268,34.0462188379]},"local":"vegan"},{"name":"Maccheroni Republic","location":{"type":"Point","coordinates":[-118.2486564088,34.0500200572]},"local":"vegan"},{"name":"Vurger Guyz","location":{"type":"Point","coordinates":[-118.251271828,34.0535567055]},"local":"vegan"},{"name":"464","location":{"type":"Point","coordinates":[-118.2484557674,34.0467137465]},"local":"vegan"},{"name":"Pete's Cafe & Bar","location":{"type":"Point","coordinates":[-118.2472014427,34.0479969652]},"local":"vegan"},{"name":"Nickel Diner","location":{"type":"Point","coordinates":[-118.2490455585,34.046071776]},"local":"vegan"},{"name":"Subito's","location":{"type":"Point","coordinates":[-118.2477164268,34.0516993942]},"local":"vegan"},{"name":"JiST Cafe","location":{"type":"Point","coordinates":[-118.2404362238,34.0509079512]},"local":"vegan"},{"name":"Panini Stop","location":{"type":"Point","coordinates":[-118.2523510875,34.0446320271]},"local":"vegan"},{"name":"Vegan Oktoberfest","location":{"type":"Point","coordinates":[-118.261548,34.054286]},"local":"vegan"},{"name":"Chipotle","location":{"type":"Point","coordinates":[-118.2566471858,34.0475961269]},"local":"vegan"},{"name":"LA's Best Salad Bar powered by Mrs. Winston's-DTLA","location":{"type":"Point","coordinates":[-118.2619482279,34.0467479702]},"local":"vegan"},{"name":"Chinchikurin Hiroshima Okonomiyaki","location":{"type":"Point","coordinates":[-118.2397152491,34.0494644307]},"local":"vegan"},{"name":"Vegan Hooligans DTLA","location":{"type":"Point","coordinates":[-118.250783,34.042736]},"local":"vegan"},{"name":"Earthbar","location":{"type":"Point","coordinates":[-118.2546951278,34.0484073477]},"local":"vegan"},{"name":"Madre Tierra Express","location":{"type":"Point","coordinates":[-118.242355,34.048363]},"local":"vegan"},{"name":"Daikokuya","location":{"type":"Point","coordinates":[-118.240095,34.049914]},"local":"vegan"},{"name":"Cuchifritos Food Truck","location":{"type":"Point","coordinates":[-118.2436828613,34.0522346497]},"local":"vegan"},{"name":"The Vegan Joint","location":{"type":"Point","coordinates":[-118.251345,34.035847]},"local":"vegan"},{"name":"Amante Pizza & Pasta","location":{"type":"Point","coordinates":[-118.256393658,34.0402961421]},"local":"vegan"},{"name":"No Tomatoes! Truck","location":{"type":"Point","coordinates":[-118.2698822021,34.0543661096]},"local":"vegan"}]